{
  "type": "FeatureCollection",
  "generator": "overpass-ide",
  "copyright": "The data included in this document is from www.openstreetmap.org. The data is made available under ODbL.",
  "timestamp": "2020-02-22T21:01:02Z",
  "features": [
    {
      "type": "Feature",
      "properties": {
        "@id": "node/410459499",
        "asset_ref": "67361",
        "bus": "yes",
        "highway": "bus_stop",
        "location": "Anchorvale Drive",
        "name": "Blk 313B",
        "public_transport": "platform",
        "route_ref": "372"
      },
      "geometry": {
        "type": "Point",
        "coordinates": [
          103.8883804,
          1.3909915
        ]
      },
      "id": "node/410459499"
    },
    {
      "type": "Feature",
      "properties": {
        "@id": "node/410459500",
        "asset_ref": "67351",
        "bus": "yes",
        "highway": "bus_stop",
        "location": "Anchorvale Drive",
        "name": "Blk 321 Carpark",
        "public_transport": "platform",
        "route_ref": "372;NR6"
      },
      "geometry": {
        "type": "Point",
        "coordinates": [
          103.8914214,
          1.3899062
        ]
      },
      "id": "node/410459500"
    },
    {
      "type": "Feature",
      "properties": {
        "@id": "node/410459504",
        "asset_ref": "67371",
        "bus": "yes",
        "highway": "bus_stop",
        "location": "Anchorvale Road",
        "name": "Blk 313 Carpark",
        "public_transport": "platform",
        "route_ref": "50;372"
      },
      "geometry": {
        "type": "Point",
        "coordinates": [
          103.8871867,
          1.3926103
        ]
      },
      "id": "node/410459504"
    },
    {
      "type": "Feature",
      "properties": {
        "@id": "node/410459561",
        "asset_ref": "54099",
        "bus": "yes",
        "highway": "bus_stop",
        "location": "Ang Mo Kio Avenue 1",
        "name": "Opposite Blk 333",
        "public_transport": "platform",
        "route_ref": "133;136;262",
        "shelter": "yes"
      },
      "geometry": {
        "type": "Point",
        "coordinates": [
          103.8510475,
          1.3611384
        ]
      },
      "id": "node/410459561"
    },
    {
      "type": "Feature",
      "properties": {
        "@id": "node/410459648",
        "asset_ref": "54109",
        "bus": "yes",
        "highway": "bus_stop",
        "location": "Ang Mo Kio Avenue 1",
        "name": "Before Ang Mo Kio Avenue 10",
        "public_transport": "platform",
        "route_ref": "22;24;53;58;133;135;136;156;159;853;853C"
      },
      "geometry": {
        "type": "Point",
        "coordinates": [
          103.8542936,
          1.3571155
        ]
      },
      "id": "node/410459648"
    },
    {
      "type": "Feature",
      "properties": {
        "@id": "node/410459657",
        "asset_ref": "54101",
        "bus": "yes",
        "highway": "bus_stop",
        "location": "Ang Mo Kio Avenue 1",
        "name": "After Ang Mo Kio Avenue 10",
        "public_transport": "platform",
        "route_ref": "22;24;45;53;58;133;135;136;156;159;853;853C"
      },
      "geometry": {
        "type": "Point",
        "coordinates": [
          103.8546582,
          1.3572912
        ]
      },
      "id": "node/410459657"
    },
    {
      "type": "Feature",
      "properties": {
        "@id": "node/410459658",
        "asset_ref": "54589",
        "bus": "yes",
        "highway": "bus_stop",
        "location": "Ang Mo Kio Avenue 10",
        "name": "Blk 555",
        "public_transport": "platform",
        "route_ref": "45;88;265"
      },
      "geometry": {
        "type": "Point",
        "coordinates": [
          103.8567394,
          1.3716939
        ]
      },
      "id": "node/410459658"
    },
    {
      "type": "Feature",
      "properties": {
        "@id": "node/410459660",
        "asset_ref": "54381",
        "bus": "yes",
        "highway": "bus_stop",
        "location": "Ang Mo Kio Avenue 10",
        "name": "Blk 443",
        "public_transport": "platform",
        "route_ref": "1N;45;55;261;CT8"
      },
      "geometry": {
        "type": "Point",
        "coordinates": [
          103.8561066,
          1.3657048
        ]
      },
      "id": "node/410459660"
    },
    {
      "type": "Feature",
      "properties": {
        "@id": "node/410459665",
        "asset_ref": "54379",
        "bus": "yes",
        "highway": "bus_stop",
        "location": "Ang Mo Kio Avenue 10",
        "name": "Blk 475",
        "public_transport": "platform",
        "route_ref": "45;55;261;CT8"
      },
      "geometry": {
        "type": "Point",
        "coordinates": [
          103.8559434,
          1.3628673
        ]
      },
      "id": "node/410459665"
    },
    {
      "type": "Feature",
      "properties": {
        "@id": "node/410459666",
        "asset_ref": "54609",
        "bus": "yes",
        "highway": "bus_stop",
        "location": "Ang Mo Kio Avenue 10",
        "name": "Opposite Townsville Primary School",
        "public_transport": "platform",
        "route_ref": "45;55;261"
      },
      "geometry": {
        "type": "Point",
        "coordinates": [
          103.8553321,
          1.3593241
        ]
      },
      "id": "node/410459666"
    },
    {
      "type": "Feature",
      "properties": {
        "@id": "node/410459667",
        "asset_ref": "54371",
        "bus": "yes",
        "highway": "bus_stop",
        "location": "Ang Mo Kio Avenue 10",
        "name": "Blk 409A",
        "public_transport": "platform",
        "route_ref": "1N;45;55;261;CT8"
      },
      "geometry": {
        "type": "Point",
        "coordinates": [
          103.8557097,
          1.3623359
        ]
      },
      "id": "node/410459667"
    },
    {
      "type": "Feature",
      "properties": {
        "@id": "node/410459668",
        "asset_ref": "54581",
        "bus": "yes",
        "highway": "bus_stop",
        "location": "Ang Mo Kio Avenue 10",
        "name": "Blk 574",
        "public_transport": "platform",
        "route_ref": "45;88"
      },
      "geometry": {
        "type": "Point",
        "coordinates": [
          103.8566525,
          1.3710148
        ]
      },
      "id": "node/410459668"
    },
    {
      "type": "Feature",
      "properties": {
        "@id": "node/410459669",
        "asset_ref": "54579",
        "bus": "yes",
        "highway": "bus_stop",
        "location": "Ang Mo Kio Avenue 10",
        "name": "Blk 540",
        "public_transport": "platform",
        "route_ref": "45;88"
      },
      "geometry": {
        "type": "Point",
        "coordinates": [
          103.854822,
          1.37488
        ]
      },
      "id": "node/410459669"
    },
    {
      "type": "Feature",
      "properties": {
        "@id": "node/410459670",
        "asset_ref": "54389",
        "bus": "yes",
        "highway": "bus_stop",
        "location": "Ang Mo Kio Avenue 10",
        "name": "Blk 465",
        "public_transport": "platform",
        "route_ref": "45;55;261;CT8"
      },
      "geometry": {
        "type": "Point",
        "coordinates": [
          103.8566123,
          1.3663763
        ]
      },
      "id": "node/410459670"
    },
    {
      "type": "Feature",
      "properties": {
        "@id": "node/410459671",
        "asset_ref": "54571",
        "bus": "yes",
        "highway": "bus_stop",
        "location": "Ang Mo Kio Avenue 10",
        "name": "Blk 532",
        "public_transport": "platform",
        "route_ref": "45;88"
      },
      "geometry": {
        "type": "Point",
        "coordinates": [
          103.854962,
          1.374173
        ]
      },
      "id": "node/410459671"
    },
    {
      "type": "Feature",
      "properties": {
        "@id": "node/410459677",
        "asset_ref": "54601",
        "bus": "yes",
        "highway": "bus_stop",
        "location": "Ang Mo Kio Avenue 10",
        "name": "Townsville Primary School",
        "public_transport": "platform",
        "route_ref": "45;55"
      },
      "geometry": {
        "type": "Point",
        "coordinates": [
          103.8551716,
          1.3594914
        ]
      },
      "id": "node/410459677"
    },
    {
      "type": "Feature",
      "properties": {
        "@id": "node/410459710",
        "asset_ref": "54291",
        "bus": "yes",
        "highway": "bus_stop",
        "location": "Ang Mo Kio Avenue 3",
        "name": "Blk 564",
        "public_transport": "platform",
        "route_ref": "25;55;73;74;76;132;165;268"
      },
      "geometry": {
        "type": "Point",
        "coordinates": [
          103.858893,
          1.3692106
        ]
      },
      "id": "node/410459710"
    },
    {
      "type": "Feature",
      "properties": {
        "@id": "node/410459713",
        "asset_ref": "66331",
        "bus": "yes",
        "highway": "bus_stop",
        "location": "Ang Mo Kio Avenue 3",
        "name": "Blk 554",
        "public_transport": "platform",
        "route_ref": "6N;25;55;73;74;76;132;165;315"
      },
      "geometry": {
        "type": "Point",
        "coordinates": [
          103.8702354,
          1.3717848
        ]
      },
      "id": "node/410459713"
    },
    {
      "type": "Feature",
      "properties": {
        "@id": "node/410459714",
        "asset_ref": "54271",
        "bus": "yes",
        "highway": "bus_stop",
        "location": "Ang Mo Kio Avenue 3",
        "name": "Blk 586",
        "public_transport": "platform",
        "route_ref": "25;73;74;76;88;132;165;261;268;CT8"
      },
      "geometry": {
        "type": "Point",
        "coordinates": [
          103.8535818,
          1.3699755
        ]
      },
      "id": "node/410459714"
    },
    {
      "type": "Feature",
      "properties": {
        "@id": "node/410459718",
        "asset_ref": "66109",
        "bus": "yes",
        "highway": "bus_stop",
        "location": "Ang Mo Kio Avenue 3",
        "name": "Blk 151",
        "public_transport": "platform",
        "route_ref": "25;55;74;76;116;132;165"
      },
      "geometry": {
        "type": "Point",
        "coordinates": [
          103.8746521,
          1.3699664
        ]
      },
      "id": "node/410459718"
    },
    {
      "type": "Feature",
      "properties": {
        "@id": "node/410459722",
        "asset_ref": "66101",
        "bus": "yes",
        "highway": "bus_stop",
        "location": "Ang Mo Kio Avenue 3",
        "name": "Blk 516",
        "public_transport": "platform",
        "route_ref": "6N;25;55;74;76;116;132;165"
      },
      "geometry": {
        "type": "Point",
        "coordinates": [
          103.8733007,
          1.3709384
        ]
      },
      "id": "node/410459722"
    },
    {
      "type": "Feature",
      "properties": {
        "@id": "node/410459724",
        "asset_ref": "54279",
        "bus": "yes",
        "highway": "bus_stop",
        "location": "Ang Mo Kio Avenue 3",
        "name": "Blk 427",
        "public_transport": "platform",
        "route_ref": "1N;25;73;74;76;88;132;165;261;268;CT8"
      },
      "geometry": {
        "type": "Point",
        "coordinates": [
          103.853966,
          1.3696827
        ]
      },
      "id": "node/410459724"
    },
    {
      "type": "Feature",
      "properties": {
        "@id": "node/410459733",
        "asset_ref": "66349",
        "bus": "yes",
        "highway": "bus_stop",
        "location": "Ang Mo Kio Avenue 3",
        "name": "Opposite Daikin Singapore",
        "public_transport": "platform",
        "route_ref": "25;55;73;74;76;132;165"
      },
      "geometry": {
        "type": "Point",
        "coordinates": [
          103.8654407,
          1.3708509
        ]
      },
      "id": "node/410459733"
    },
    {
      "type": "Feature",
      "properties": {
        "@id": "node/410459764",
        "asset_ref": "54301",
        "bus": "yes",
        "highway": "bus_stop",
        "location": "Ang Mo Kio Avenue 3",
        "name": "Blk 5022",
        "public_transport": "platform",
        "route_ref": "25;55;73;74;76;132;165;268"
      },
      "geometry": {
        "type": "Point",
        "coordinates": [
          103.8628402,
          1.3701893
        ]
      },
      "id": "node/410459764"
    },
    {
      "type": "Feature",
      "properties": {
        "@id": "node/410459785",
        "asset_ref": "54309",
        "bus": "yes",
        "highway": "bus_stop",
        "location": "Ang Mo Kio Avenue 3",
        "name": "Opposite Blk 5022",
        "public_transport": "platform",
        "route_ref": "25;55;73;74;76;132;165;268"
      },
      "geometry": {
        "type": "Point",
        "coordinates": [
          103.8631452,
          1.3699251
        ]
      },
      "id": "node/410459785"
    },
    {
      "type": "Feature",
      "properties": {
        "@id": "node/410459791",
        "asset_ref": "54281",
        "bus": "yes",
        "highway": "bus_stop",
        "location": "Ang Mo Kio Avenue 3",
        "name": "Blk 570",
        "public_transport": "platform",
        "route_ref": "25;73;74;76;88;132;165;261;268;CT8"
      },
      "geometry": {
        "type": "Point",
        "coordinates": [
          103.8560447,
          1.3695269
        ]
      },
      "id": "node/410459791"
    },
    {
      "type": "Feature",
      "properties": {
        "@id": "node/410459793",
        "asset_ref": "54299",
        "bus": "yes",
        "highway": "bus_stop",
        "location": "Ang Mo Kio Avenue 3",
        "name": "Opposite Blk 565",
        "public_transport": "platform",
        "route_ref": "25;55;73;74;76;132;165;268"
      },
      "geometry": {
        "type": "Point",
        "coordinates": [
          103.8583563,
          1.3688745
        ]
      },
      "id": "node/410459793"
    },
    {
      "type": "Feature",
      "properties": {
        "@id": "node/410459794",
        "asset_ref": "66339",
        "bus": "yes",
        "highway": "bus_stop",
        "location": "Ang Mo Kio Avenue 3",
        "name": "Blk 101",
        "public_transport": "platform",
        "route_ref": "25;55;73;74;76;132;165"
      },
      "geometry": {
        "type": "Point",
        "coordinates": [
          103.8704732,
          1.3712308
        ]
      },
      "id": "node/410459794"
    },
    {
      "type": "Feature",
      "properties": {
        "@id": "node/410459798",
        "asset_ref": "66341",
        "bus": "yes",
        "highway": "bus_stop",
        "location": "Ang Mo Kio Avenue 3",
        "name": "Daikin Singapore",
        "public_transport": "platform",
        "route_ref": "25;55;73;74;76;132;165"
      },
      "geometry": {
        "type": "Point",
        "coordinates": [
          103.8652151,
          1.3711259
        ]
      },
      "id": "node/410459798"
    },
    {
      "type": "Feature",
      "properties": {
        "@id": "node/410459809",
        "asset_ref": "54499",
        "bus": "yes",
        "highway": "bus_stop",
        "location": "Ang Mo Kio Avenue 5",
        "name": "Before CTE",
        "public_transport": "platform",
        "route_ref": "50;72;88;159"
      },
      "geometry": {
        "type": "Point",
        "coordinates": [
          103.8605602,
          1.3770151
        ]
      },
      "id": "node/410459809"
    },
    {
      "type": "Feature",
      "properties": {
        "@id": "node/410459810",
        "asset_ref": "66479",
        "bus": "yes",
        "highway": "bus_stop",
        "location": "Ang Mo Kio Avenue 5",
        "name": "After Yio Chu Kang Road",
        "public_transport": "platform",
        "route_ref": "50;72;88"
      },
      "geometry": {
        "type": "Point",
        "coordinates": [
          103.8743215,
          1.3786399
        ]
      },
      "id": "node/410459810"
    },
    {
      "type": "Feature",
      "properties": {
        "@id": "node/410459811",
        "asset_ref": "66451",
        "bus": "yes",
        "highway": "bus_stop",
        "location": "Ang Mo Kio Avenue 5",
        "name": "After AMK Industrial Park 2",
        "public_transport": "platform",
        "route_ref": "50;72;88;159"
      },
      "geometry": {
        "type": "Point",
        "coordinates": [
          103.868519,
          1.3787174
        ]
      },
      "id": "node/410459811"
    },
    {
      "type": "Feature",
      "properties": {
        "@id": "node/410459813",
        "asset_ref": "54651",
        "bus": "yes",
        "highway": "bus_stop",
        "location": "Ang Mo Kio Avenue 5",
        "name": "Opposite Techplace 2",
        "public_transport": "platform",
        "route_ref": "50;72;88;159"
      },
      "geometry": {
        "type": "Point",
        "coordinates": [
          103.8655043,
          1.3785441
        ]
      },
      "id": "node/410459813"
    },
    {
      "type": "Feature",
      "properties": {
        "@id": "node/410459815",
        "asset_ref": "54659",
        "bus": "yes",
        "highway": "bus_stop",
        "location": "Ang Mo Kio Avenue 5",
        "name": "Techplace 2",
        "public_transport": "platform",
        "route_ref": "50;72;88;159;268"
      },
      "geometry": {
        "type": "Point",
        "coordinates": [
          103.866118,
          1.3782762
        ]
      },
      "id": "node/410459815"
    },
    {
      "type": "Feature",
      "properties": {
        "@id": "node/410459816",
        "asset_ref": "54471",
        "bus": "yes",
        "highway": "bus_stop",
        "location": "Ang Mo Kio Avenue 5",
        "name": "Opposite Blk 538",
        "public_transport": "platform",
        "route_ref": "45;50;72;159"
      },
      "geometry": {
        "type": "Point",
        "coordinates": [
          103.853263,
          1.376136
        ]
      },
      "id": "node/410459816"
    },
    {
      "type": "Feature",
      "properties": {
        "@id": "node/410459829",
        "asset_ref": "66459",
        "bus": "yes",
        "highway": "bus_stop",
        "location": "Ang Mo Kio Avenue 5",
        "name": "After Seagate",
        "public_transport": "platform",
        "route_ref": "50;72;88;159"
      },
      "geometry": {
        "type": "Point",
        "coordinates": [
          103.8707924,
          1.3784691
        ]
      },
      "id": "node/410459829"
    },
    {
      "type": "Feature",
      "properties": {
        "@id": "node/410459830",
        "asset_ref": "66461",
        "bus": "yes",
        "highway": "bus_stop",
        "location": "Ang Mo Kio Avenue 5",
        "name": "Before Seagate",
        "public_transport": "platform",
        "route_ref": "50;72;88"
      },
      "geometry": {
        "type": "Point",
        "coordinates": [
          103.8711814,
          1.3788428
        ]
      },
      "id": "node/410459830"
    },
    {
      "type": "Feature",
      "properties": {
        "@id": "node/410459831",
        "asset_ref": "54501",
        "bus": "yes",
        "highway": "bus_stop",
        "location": "Ang Mo Kio Avenue 5",
        "name": "Opposite AMK Industrial Park 2",
        "public_transport": "platform",
        "route_ref": "50;72;88;159"
      },
      "geometry": {
        "type": "Point",
        "coordinates": [
          103.862593,
          1.3778995
        ]
      },
      "id": "node/410459831"
    },
    {
      "type": "Feature",
      "properties": {
        "@id": "node/410459835",
        "asset_ref": "54481",
        "bench": "yes",
        "bus": "yes",
        "highway": "bus_stop",
        "location": "Ang Mo Kio Avenue 5",
        "name": "ITE College Central",
        "public_transport": "platform",
        "route_ref": "50;72;88;159",
        "shelter": "yes"
      },
      "geometry": {
        "type": "Point",
        "coordinates": [
          103.855824,
          1.3759954
        ]
      },
      "id": "node/410459835"
    },
    {
      "type": "Feature",
      "properties": {
        "@id": "node/410459840",
        "asset_ref": "66471",
        "bus": "yes",
        "highway": "bus_stop",
        "location": "Ang Mo Kio Avenue 5",
        "name": "Before Yio Chu Kang Road",
        "public_transport": "platform",
        "route_ref": "50;72;88"
      },
      "geometry": {
        "type": "Point",
        "coordinates": [
          103.8742978,
          1.379002
        ]
      },
      "id": "node/410459840"
    },
    {
      "type": "Feature",
      "properties": {
        "@id": "node/410459841",
        "asset_ref": "54509",
        "bus": "yes",
        "highway": "bus_stop",
        "location": "Ang Mo Kio Avenue 5",
        "name": "After Blk 5000",
        "public_transport": "platform",
        "route_ref": "50;72;88;159;268"
      },
      "geometry": {
        "type": "Point",
        "coordinates": [
          103.8626083,
          1.3775881
        ]
      },
      "id": "node/410459841"
    },
    {
      "type": "Feature",
      "properties": {
        "@id": "node/410459842",
        "asset_ref": "54479",
        "bus": "yes",
        "highway": "bus_stop",
        "location": "Ang Mo Kio Avenue 5",
        "name": "Blk 538",
        "public_transport": "platform",
        "route_ref": "45;50;72;159"
      },
      "geometry": {
        "type": "Point",
        "coordinates": [
          103.8531552,
          1.3758423
        ]
      },
      "id": "node/410459842"
    },
    {
      "type": "Feature",
      "properties": {
        "@id": "node/410459844",
        "asset_ref": "54491",
        "bus": "yes",
        "highway": "bus_stop",
        "location": "Ang Mo Kio Avenue 5",
        "name": "After CTE",
        "public_transport": "platform",
        "route_ref": "50;72;88;159"
      },
      "geometry": {
        "type": "Point",
        "coordinates": [
          103.860149,
          1.377193
        ]
      },
      "id": "node/410459844"
    },
    {
      "type": "Feature",
      "properties": {
        "@id": "node/410459896",
        "asset_ref": "54321",
        "bus": "yes",
        "highway": "bus_stop",
        "location": "Ang Mo Kio Avenue 8",
        "name": "Blk 354",
        "public_transport": "platform",
        "route_ref": "22;24;50;128;135;159;162;162M;262;853;853C"
      },
      "geometry": {
        "type": "Point",
        "coordinates": [
          103.8524102,
          1.3639414
        ]
      },
      "id": "node/410459896"
    },
    {
      "type": "Feature",
      "properties": {
        "@id": "node/410459897",
        "asset_ref": "54329",
        "bus": "yes",
        "highway": "bus_stop",
        "location": "Ang Mo Kio Avenue 8",
        "name": "Blk 420",
        "public_transport": "platform",
        "route_ref": "22;24;50;128;135;159;162;162M;262;853;853C"
      },
      "geometry": {
        "type": "Point",
        "coordinates": [
          103.852529,
          1.3644184
        ]
      },
      "id": "node/410459897"
    },
    {
      "type": "Feature",
      "properties": {
        "@id": "node/410459903",
        "asset_ref": "54311",
        "bus": "yes",
        "highway": "bus_stop",
        "location": "Ang Mo Kio Avenue 8",
        "name": "Blk 332",
        "public_transport": "platform",
        "route_ref": "22;24;50;128;135;159;162;162M;262;853;853C"
      },
      "geometry": {
        "type": "Point",
        "coordinates": [
          103.852557,
          1.3613926
        ]
      },
      "id": "node/410459903"
    },
    {
      "type": "Feature",
      "properties": {
        "@id": "node/410459904",
        "asset_ref": "54319",
        "bus": "yes",
        "highway": "bus_stop",
        "location": "Ang Mo Kio Avenue 8",
        "name": "Opposite Christ The King Church",
        "public_transport": "platform",
        "route_ref": "22;24;50;128;135;159;162;162M;262;853;853C"
      },
      "geometry": {
        "type": "Point",
        "coordinates": [
          103.8530664,
          1.3620452
        ]
      },
      "id": "node/410459904"
    },
    {
      "type": "Feature",
      "properties": {
        "@id": "node/410459916",
        "asset_ref": "54369",
        "bus": "yes",
        "highway": "bus_stop",
        "location": "Ang Mo Kio Industrial Park 1",
        "name": "Opposite Blk 4025",
        "public_transport": "platform",
        "route_ref": "261"
      },
      "geometry": {
        "type": "Point",
        "coordinates": [
          103.8559833,
          1.358755
        ]
      },
      "id": "node/410459916"
    },
    {
      "type": "Feature",
      "properties": {
        "@id": "node/410459926",
        "asset_ref": "54519",
        "bus": "yes",
        "highway": "bus_stop",
        "location": "Ang Mo Kio Industrial Park 2",
        "name": "Opposite Blk 5023",
        "public_transport": "platform",
        "route_ref": "268"
      },
      "geometry": {
        "type": "Point",
        "coordinates": [
          103.8637375,
          1.3712512
        ]
      },
      "id": "node/410459926"
    },
    {
      "type": "Feature",
      "properties": {
        "@id": "node/410459942",
        "asset_ref": "54641",
        "bus": "yes",
        "highway": "bus_stop",
        "location": "Ang Mo Kio Industrial Park 2",
        "name": "Sing Industrial Complex",
        "public_transport": "platform",
        "route_ref": "268"
      },
      "geometry": {
        "type": "Point",
        "coordinates": [
          103.864655,
          1.375724
        ]
      },
      "id": "node/410459942"
    },
    {
      "type": "Feature",
      "properties": {
        "@id": "node/410459961",
        "asset_ref": "54529",
        "bus": "yes",
        "highway": "bus_stop",
        "location": "Ang Mo Kio Industrial Park 2",
        "name": "Opposite Blk 5093",
        "public_transport": "platform",
        "route_ref": "268"
      },
      "geometry": {
        "type": "Point",
        "coordinates": [
          103.8630587,
          1.3733569
        ]
      },
      "id": "node/410459961"
    },
    {
      "type": "Feature",
      "properties": {
        "@id": "node/410459971",
        "asset_ref": "54591",
        "bus": "yes",
        "highway": "bus_stop",
        "location": "Ang Mo Kio Industrial Park 2",
        "name": "Blk 5084",
        "public_transport": "platform",
        "route_ref": "268"
      },
      "geometry": {
        "type": "Point",
        "coordinates": [
          103.8617824,
          1.3753603
        ]
      },
      "id": "node/410459971"
    },
    {
      "type": "Feature",
      "properties": {
        "@id": "node/410459973",
        "asset_ref": "54631",
        "bus": "yes",
        "highway": "bus_stop",
        "location": "Ang Mo Kio Industrial Park 2",
        "name": "Opposite Tyco Electronics",
        "public_transport": "platform",
        "route_ref": "268"
      },
      "geometry": {
        "type": "Point",
        "coordinates": [
          103.866998,
          1.377022
        ]
      },
      "id": "node/410459973"
    },
    {
      "type": "Feature",
      "properties": {
        "@id": "node/410459974",
        "asset_ref": "54521",
        "bus": "yes",
        "highway": "bus_stop",
        "location": "Ang Mo Kio Industrial Park 2",
        "name": "Blk 5046",
        "public_transport": "platform",
        "route_ref": "268"
      },
      "geometry": {
        "type": "Point",
        "coordinates": [
          103.8628844,
          1.3734232
        ]
      },
      "id": "node/410459974"
    },
    {
      "type": "Feature",
      "properties": {
        "@id": "node/410459976",
        "asset_ref": "54511",
        "bus": "yes",
        "highway": "bus_stop",
        "location": "Ang Mo Kio Industrial Park 2",
        "name": "Blk 5028",
        "public_transport": "platform",
        "route_ref": "268"
      },
      "geometry": {
        "type": "Point",
        "coordinates": [
          103.8634462,
          1.3716686
        ]
      },
      "id": "node/410459976"
    },
    {
      "type": "Feature",
      "properties": {
        "@id": "node/410459979",
        "asset_ref": "54401",
        "bus": "yes",
        "highway": "bus_stop",
        "location": "Ang Mo Kio Street 52",
        "name": "Blk 522",
        "public_transport": "platform",
        "route_ref": "265"
      },
      "geometry": {
        "type": "Point",
        "coordinates": [
          103.8516285,
          1.3729315
        ]
      },
      "id": "node/410459979"
    },
    {
      "type": "Feature",
      "properties": {
        "@id": "node/410459980",
        "asset_ref": "54409",
        "bus": "yes",
        "highway": "bus_stop",
        "location": "Ang Mo Kio Street 52",
        "name": "Opposite Blk 522",
        "public_transport": "platform",
        "route_ref": "265"
      },
      "geometry": {
        "type": "Point",
        "coordinates": [
          103.8521873,
          1.3726926
        ]
      },
      "id": "node/410459980"
    },
    {
      "type": "Feature",
      "properties": {
        "@id": "node/410459981",
        "asset_ref": "54419",
        "bus": "yes",
        "highway": "bus_stop",
        "location": "Ang Mo Kio Street 52",
        "name": "Opposite Blk 527",
        "public_transport": "platform",
        "route_ref": "265"
      },
      "geometry": {
        "type": "Point",
        "coordinates": [
          103.854923,
          1.37209
        ]
      },
      "id": "node/410459981"
    },
    {
      "type": "Feature",
      "properties": {
        "@id": "node/410459982",
        "asset_ref": "54411",
        "bus": "yes",
        "highway": "bus_stop",
        "location": "Ang Mo Kio Street 52",
        "name": "Blk 527",
        "public_transport": "platform",
        "route_ref": "265"
      },
      "geometry": {
        "type": "Point",
        "coordinates": [
          103.854196,
          1.3723787
        ]
      },
      "id": "node/410459982"
    },
    {
      "type": "Feature",
      "properties": {
        "@id": "node/410459997",
        "asset_ref": "54439",
        "bus": "yes",
        "highway": "bus_stop",
        "location": "Ang Mo Kio Street 54",
        "name": "Blk 549",
        "public_transport": "platform",
        "route_ref": "265"
      },
      "geometry": {
        "type": "Point",
        "coordinates": [
          103.8571769,
          1.3732725
        ]
      },
      "id": "node/410459997"
    },
    {
      "type": "Feature",
      "properties": {
        "@id": "node/410460000",
        "asset_ref": "54429",
        "bus": "yes",
        "highway": "bus_stop",
        "location": "Ang Mo Kio Street 54",
        "name": "Blk 561",
        "public_transport": "platform",
        "route_ref": "265"
      },
      "geometry": {
        "type": "Point",
        "coordinates": [
          103.8579867,
          1.3703515
        ]
      },
      "id": "node/410460000"
    },
    {
      "type": "Feature",
      "properties": {
        "@id": "node/410461772",
        "asset_ref": "66291",
        "bus": "yes",
        "highway": "bus_stop",
        "location": "Berwick Drive",
        "name": "Opposite Serangoon Garden Circus",
        "public_transport": "platform",
        "route_ref": "317"
      },
      "geometry": {
        "type": "Point",
        "coordinates": [
          103.861967,
          1.365962
        ]
      },
      "id": "node/410461772"
    },
    {
      "type": "Feature",
      "properties": {
        "@id": "node/410461773",
        "asset_ref": "66211",
        "bus": "yes",
        "highway": "bus_stop",
        "location": "Berwick Drive",
        "name": "Opposite Bloxhome Drive",
        "public_transport": "platform",
        "route_ref": "317"
      },
      "geometry": {
        "type": "Point",
        "coordinates": [
          103.8610438,
          1.3641263
        ]
      },
      "id": "node/410461773"
    },
    {
      "type": "Feature",
      "properties": {
        "@id": "node/410461774",
        "asset_ref": "66201",
        "bus": "yes",
        "highway": "bus_stop",
        "location": "Berwick Drive",
        "name": "Opposite Brockhampton Drive",
        "public_transport": "platform",
        "route_ref": "317"
      },
      "geometry": {
        "type": "Point",
        "coordinates": [
          103.8596391,
          1.3620494
        ]
      },
      "id": "node/410461774"
    },
    {
      "type": "Feature",
      "properties": {
        "@id": "node/410461786",
        "asset_ref": "54531",
        "bus": "yes",
        "highway": "bus_stop",
        "location": "Bishan Road",
        "name": "MRT Bishan Depot",
        "public_transport": "platform",
        "route_ref": "50;53;55;58;156;162;162M",
        "shelter": "yes"
      },
      "geometry": {
        "type": "Point",
        "coordinates": [
          103.851304,
          1.3583778
        ]
      },
      "id": "node/410461786"
    },
    {
      "type": "Feature",
      "properties": {
        "@id": "node/410462164",
        "asset_ref": "66551",
        "bus": "yes",
        "highway": "bus_stop",
        "location": "Buangkok Link",
        "name": "Blk 984",
        "public_transport": "platform",
        "route_ref": "101"
      },
      "geometry": {
        "type": "Point",
        "coordinates": [
          103.881402,
          1.3817267
        ]
      },
      "id": "node/410462164"
    },
    {
      "type": "Feature",
      "properties": {
        "@id": "node/410462187",
        "asset_ref": "66481",
        "highway": "bus_stop",
        "location": "Buangkok Green",
        "name": "Opposite Blk 968",
        "route_ref": "43;43M;88;156"
      },
      "geometry": {
        "type": "Point",
        "coordinates": [
          103.8783191,
          1.3791973
        ]
      },
      "id": "node/410462187"
    },
    {
      "type": "Feature",
      "properties": {
        "@id": "node/410462211",
        "asset_ref": "66499",
        "bus": "yes",
        "highway": "bus_stop",
        "location": "Buangkok Green",
        "name": "Blk 911",
        "public_transport": "platform",
        "route_ref": "43;43M;88;101;156;325"
      },
      "geometry": {
        "type": "Point",
        "coordinates": [
          103.8832987,
          1.3790766
        ]
      },
      "id": "node/410462211"
    },
    {
      "type": "Feature",
      "properties": {
        "@id": "node/410462238",
        "asset_ref": "66491",
        "bus": "yes",
        "highway": "bus_stop",
        "location": "Buangkok Green",
        "name": "Opposite Blk 910",
        "public_transport": "platform",
        "route_ref": "43;43M;88;101;156;325"
      },
      "geometry": {
        "type": "Point",
        "coordinates": [
          103.882608,
          1.379399
        ]
      },
      "id": "node/410462238"
    },
    {
      "type": "Feature",
      "properties": {
        "@id": "node/410462266",
        "asset_ref": "64621",
        "bus": "yes",
        "highway": "bus_stop",
        "location": "Buangkok Green",
        "name": "Blk 565",
        "public_transport": "platform",
        "route_ref": "43;43M;109;156;159;161"
      },
      "geometry": {
        "type": "Point",
        "coordinates": [
          103.888125,
          1.381221
        ]
      },
      "id": "node/410462266"
    },
    {
      "type": "Feature",
      "properties": {
        "@id": "node/410462285",
        "asset_ref": "64629",
        "bus": "yes",
        "highway": "bus_stop",
        "location": "Buangkok Green",
        "name": "Opposite Blk 565",
        "public_transport": "platform",
        "route_ref": "43;43M;109;156;159;161"
      },
      "geometry": {
        "type": "Point",
        "coordinates": [
          103.887625,
          1.38104
        ]
      },
      "id": "node/410462285"
    },
    {
      "type": "Feature",
      "properties": {
        "@id": "node/410462291",
        "asset_ref": "66489",
        "highway": "bus_stop",
        "location": "Buangkok Green",
        "name": "Blk 969",
        "route_ref": "43;43M;88;156;325"
      },
      "geometry": {
        "type": "Point",
        "coordinates": [
          103.8790032,
          1.3788646
        ]
      },
      "id": "node/410462291"
    },
    {
      "type": "Feature",
      "properties": {
        "@id": "node/410462292",
        "asset_ref": "64469",
        "bus": "yes",
        "highway": "bus_stop",
        "location": "Buangkok Green",
        "name": "Opposite Blk 579",
        "public_transport": "platform",
        "route_ref": "43;43M;109;156;159;161;325",
        "wheelchair": "yes"
      },
      "geometry": {
        "type": "Point",
        "coordinates": [
          103.885745,
          1.3794886
        ]
      },
      "id": "node/410462292"
    },
    {
      "type": "Feature",
      "properties": {
        "@id": "node/410462293",
        "asset_ref": "64461",
        "bus": "yes",
        "highway": "bus_stop",
        "location": "Buangkok Green",
        "name": "Blk 579",
        "public_transport": "platform",
        "route_ref": "43;43M;101;109;156;159;161;325",
        "wheelchair": "yes"
      },
      "geometry": {
        "type": "Point",
        "coordinates": [
          103.8860865,
          1.3793135
        ]
      },
      "id": "node/410462293"
    },
    {
      "type": "Feature",
      "properties": {
        "@id": "node/410462294",
        "asset_ref": "66549",
        "bus": "yes",
        "highway": "bus_stop",
        "location": "Buangkok Link",
        "name": "Opposite Blk 980C",
        "public_transport": "platform",
        "route_ref": "101"
      },
      "geometry": {
        "type": "Point",
        "coordinates": [
          103.881609,
          1.3801992
        ]
      },
      "id": "node/410462294"
    },
    {
      "type": "Feature",
      "properties": {
        "@id": "node/410462295",
        "asset_ref": "66541",
        "bus": "yes",
        "highway": "bus_stop",
        "location": "Buangkok Link",
        "name": "Blk 980C",
        "public_transport": "platform",
        "route_ref": "101"
      },
      "geometry": {
        "type": "Point",
        "coordinates": [
          103.8813496,
          1.3798996
        ]
      },
      "id": "node/410462295"
    },
    {
      "type": "Feature",
      "properties": {
        "@id": "node/410462678",
        "asset_ref": "66181",
        "bus": "yes",
        "highway": "bus_stop",
        "location": "Burghley Drive",
        "name": "After Chartwell Road",
        "public_transport": "platform",
        "route_ref": "317"
      },
      "geometry": {
        "type": "Point",
        "coordinates": [
          103.8618847,
          1.358796
        ]
      },
      "id": "node/410462678"
    },
    {
      "type": "Feature",
      "properties": {
        "@id": "node/410462679",
        "asset_ref": "66191",
        "bus": "yes",
        "highway": "bus_stop",
        "location": "Burghley Drive",
        "name": "Tipsy cow",
        "public_transport": "platform",
        "route_ref": "317"
      },
      "geometry": {
        "type": "Point",
        "coordinates": [
          103.8598093,
          1.3606164
        ]
      },
      "id": "node/410462679"
    },
    {
      "type": "Feature",
      "properties": {
        "@id": "node/410462823",
        "asset_ref": "66171",
        "bus": "yes",
        "highway": "bus_stop",
        "location": "Chartwell Drive",
        "name": "Before Cooling Close",
        "public_transport": "platform",
        "route_ref": "317"
      },
      "geometry": {
        "type": "Point",
        "coordinates": [
          103.863556,
          1.359709
        ]
      },
      "id": "node/410462823"
    },
    {
      "type": "Feature",
      "properties": {
        "@id": "node/410462856",
        "asset_ref": "66151",
        "bus": "yes",
        "highway": "bus_stop",
        "location": "Chartwell Drive",
        "name": "Opposite Penshurst Place",
        "public_transport": "platform",
        "route_ref": "317"
      },
      "geometry": {
        "type": "Point",
        "coordinates": [
          103.865769,
          1.363029
        ]
      },
      "id": "node/410462856"
    },
    {
      "type": "Feature",
      "properties": {
        "@id": "node/410462894",
        "asset_ref": "66161",
        "bus": "yes",
        "highway": "bus_stop",
        "location": "Chartwell Drive",
        "name": "Opposite Crowhurst Drive",
        "public_transport": "platform",
        "route_ref": "317"
      },
      "geometry": {
        "type": "Point",
        "coordinates": [
          103.8646851,
          1.3612642
        ]
      },
      "id": "node/410462894"
    },
    {
      "type": "Feature",
      "properties": {
        "@id": "node/410463793",
        "asset_ref": "67341",
        "bus": "yes",
        "highway": "bus_stop",
        "location": "Compassvale Drive",
        "name": "Opposite Blk 204 Carpark",
        "public_transport": "platform",
        "route_ref": "85;102;372;NR6"
      },
      "geometry": {
        "type": "Point",
        "coordinates": [
          103.8950508,
          1.3886931
        ]
      },
      "id": "node/410463793"
    },
    {
      "type": "Feature",
      "properties": {
        "@id": "node/410463794",
        "asset_ref": "67171",
        "bus": "yes",
        "highway": "bus_stop",
        "location": "Compassvale Drive",
        "name": "Blk 225A",
        "public_transport": "platform",
        "route_ref": "80;85;86;372;NR6"
      },
      "geometry": {
        "type": "Point",
        "coordinates": [
          103.8989968,
          1.3873166
        ]
      },
      "id": "node/410463794"
    },
    {
      "type": "Feature",
      "properties": {
        "@id": "node/410463795",
        "asset_ref": "67349",
        "bus": "yes",
        "highway": "bus_stop",
        "location": "Compassvale Drive",
        "name": "Blk 204 Carpark",
        "public_transport": "platform",
        "route_ref": "85;102;372"
      },
      "geometry": {
        "type": "Point",
        "coordinates": [
          103.8952533,
          1.3883745
        ]
      },
      "id": "node/410463795"
    },
    {
      "type": "Feature",
      "properties": {
        "@id": "node/410463796",
        "asset_ref": "67179",
        "bus": "yes",
        "highway": "bus_stop",
        "location": "Compassvale Drive",
        "name": "Opposite Blk 225A",
        "public_transport": "platform",
        "route_ref": "80;85;86"
      },
      "geometry": {
        "type": "Point",
        "coordinates": [
          103.8980292,
          1.3873658
        ]
      },
      "id": "node/410463796"
    },
    {
      "type": "Feature",
      "properties": {
        "@id": "node/410463797",
        "asset_ref": "67189",
        "bus": "yes",
        "highway": "bus_stop",
        "location": "Compassvale Road",
        "name": "Opposite Blk 241",
        "public_transport": "platform",
        "route_ref": "27;89;102;163;163M;371;965"
      },
      "geometry": {
        "type": "Point",
        "coordinates": [
          103.8974107,
          1.3906583
        ]
      },
      "id": "node/410463797"
    },
    {
      "type": "Feature",
      "properties": {
        "@id": "node/410463798",
        "asset_ref": "67241",
        "bus": "yes",
        "highway": "bus_stop",
        "location": "Compassvale Road",
        "name": "Blk 248A",
        "public_transport": "platform",
        "route_ref": "27;89;371;965"
      },
      "geometry": {
        "type": "Point",
        "coordinates": [
          103.8985228,
          1.3929464
        ]
      },
      "id": "node/410463798"
    },
    {
      "type": "Feature",
      "properties": {
        "@id": "node/410463799",
        "asset_ref": "67249",
        "bus": "yes",
        "highway": "bus_stop",
        "location": "Compassvale Road",
        "name": "Blk 259C",
        "public_transport": "platform",
        "route_ref": "27;89;371;965"
      },
      "geometry": {
        "type": "Point",
        "coordinates": [
          103.8985534,
          1.3937316
        ]
      },
      "id": "node/410463799"
    },
    {
      "type": "Feature",
      "properties": {
        "@id": "node/410463800",
        "asset_ref": "67181",
        "bus": "yes",
        "highway": "bus_stop",
        "location": "Compassvale Road",
        "name": "Blk 240",
        "public_transport": "platform",
        "route_ref": "27;89;102;156;159;372;965"
      },
      "geometry": {
        "type": "Point",
        "coordinates": [
          103.8978118,
          1.3909954
        ]
      },
      "id": "node/410463800"
    },
    {
      "type": "Feature",
      "properties": {
        "@id": "node/410463801",
        "asset_ref": "67191",
        "bus": "yes",
        "highway": "bus_stop",
        "location": "Compassvale Road",
        "name": "Blk 223D",
        "public_transport": "platform",
        "route_ref": "27;80;86;87;89;102;372"
      },
      "geometry": {
        "type": "Point",
        "coordinates": [
          103.8971706,
          1.3890419
        ]
      },
      "id": "node/410463801"
    },
    {
      "type": "Feature",
      "properties": {
        "@id": "node/410463802",
        "asset_ref": "67201",
        "bus": "yes",
        "highway": "bus_stop",
        "location": "Compassvale Road",
        "name": "Blk 206A",
        "public_transport": "platform",
        "route_ref": "27;87;89"
      },
      "geometry": {
        "type": "Point",
        "coordinates": [
          103.8963385,
          1.3867171
        ]
      },
      "id": "node/410463802"
    },
    {
      "type": "Feature",
      "properties": {
        "@id": "node/410463803",
        "asset_ref": "67209",
        "bus": "yes",
        "highway": "bus_stop",
        "location": "Compassvale Road",
        "name": "Blk 203",
        "public_transport": "platform",
        "route_ref": "27;87;89"
      },
      "geometry": {
        "type": "Point",
        "coordinates": [
          103.8962023,
          1.3869219
        ]
      },
      "id": "node/410463803"
    },
    {
      "type": "Feature",
      "properties": {
        "@id": "node/410463805",
        "asset_ref": "67199",
        "bus": "yes",
        "highway": "bus_stop",
        "location": "Compassvale Road",
        "name": "Opposite Blk 223D",
        "public_transport": "platform",
        "route_ref": "27;80;86;87;89;102"
      },
      "geometry": {
        "type": "Point",
        "coordinates": [
          103.8968561,
          1.3888803
        ]
      },
      "id": "node/410463805"
    },
    {
      "type": "Feature",
      "properties": {
        "@id": "node/410463806",
        "asset_ref": "67431",
        "bus": "yes",
        "highway": "bus_stop",
        "location": "Compassvale Street",
        "name": "Opposite Blk 291A",
        "public_transport": "platform",
        "route_ref": "83"
      },
      "geometry": {
        "type": "Point",
        "coordinates": [
          103.8974189,
          1.3952527
        ]
      },
      "id": "node/410463806"
    },
    {
      "type": "Feature",
      "properties": {
        "@id": "node/410463808",
        "asset_ref": "67439",
        "bus": "yes",
        "highway": "bus_stop",
        "location": "Compassvale Street",
        "name": "Blk 291A",
        "public_transport": "platform",
        "route_ref": "83"
      },
      "geometry": {
        "type": "Point",
        "coordinates": [
          103.8973786,
          1.3954981
        ]
      },
      "id": "node/410463808"
    },
    {
      "type": "Feature",
      "properties": {
        "@id": "node/410463812",
        "asset_ref": "67259",
        "bus": "yes",
        "highway": "bus_stop",
        "location": "Compassvale Street",
        "name": "Blk 297A",
        "public_transport": "platform",
        "route_ref": "27;83;89;371;965"
      },
      "geometry": {
        "type": "Point",
        "coordinates": [
          103.9004644,
          1.3946087
        ]
      },
      "id": "node/410463812"
    },
    {
      "type": "Feature",
      "properties": {
        "@id": "node/410463819",
        "asset_ref": "67251",
        "bus": "yes",
        "highway": "bus_stop",
        "location": "Compassvale Street",
        "name": "Blk 253",
        "public_transport": "platform",
        "route_ref": "27;83;89;371;965"
      },
      "geometry": {
        "type": "Point",
        "coordinates": [
          103.9003923,
          1.3944038
        ]
      },
      "id": "node/410463819"
    },
    {
      "type": "Feature",
      "properties": {
        "@id": "node/410464074",
        "asset_ref": "65249",
        "bus": "yes",
        "highway": "bus_stop",
        "location": "Edgefield Plains",
        "name": "Blk 178",
        "public_transport": "platform",
        "route_ref": "136"
      },
      "geometry": {
        "type": "Point",
        "coordinates": [
          103.9082822,
          1.3995595
        ]
      },
      "id": "node/410464074"
    },
    {
      "type": "Feature",
      "properties": {
        "@id": "node/410464088",
        "asset_ref": "65241",
        "bus": "yes",
        "highway": "bus_stop",
        "location": "Edgefield Plains",
        "name": "Blk 196C",
        "public_transport": "platform",
        "route_ref": "136"
      },
      "geometry": {
        "type": "Point",
        "coordinates": [
          103.9076522,
          1.3990941
        ]
      },
      "id": "node/410464088"
    },
    {
      "type": "Feature",
      "properties": {
        "@id": "node/410464090",
        "asset_ref": "77069",
        "bus": "yes",
        "highway": "bus_stop",
        "location": "Elias Road",
        "name": "Opposite Ris Grandeur",
        "public_transport": "platform",
        "route_ref": "3;3A",
        "wheelchair": "yes"
      },
      "geometry": {
        "type": "Point",
        "coordinates": [
          103.9408118,
          1.3741363
        ]
      },
      "id": "node/410464090"
    },
    {
      "type": "Feature",
      "properties": {
        "@id": "node/410464105",
        "asset_ref": "77061",
        "bus": "yes",
        "highway": "bus_stop",
        "location": "Elias Road",
        "name": "Ris Grandeur",
        "public_transport": "platform",
        "route_ref": "3;3B;4N",
        "wheelchair": "yes"
      },
      "geometry": {
        "type": "Point",
        "coordinates": [
          103.9403494,
          1.373701
        ]
      },
      "id": "node/410464105"
    },
    {
      "type": "Feature",
      "properties": {
        "@id": "node/410464114",
        "asset_ref": "77079",
        "bus": "yes",
        "highway": "bus_stop",
        "location": "Elias Road",
        "name": "Elias Mall",
        "public_transport": "platform",
        "route_ref": "403"
      },
      "geometry": {
        "type": "Point",
        "coordinates": [
          103.9415432,
          1.3784024
        ]
      },
      "id": "node/410464114"
    },
    {
      "type": "Feature",
      "properties": {
        "@id": "node/410464117",
        "asset_ref": "77071",
        "bus": "yes",
        "highway": "bus_stop",
        "location": "Elias Road",
        "name": "Blk 633",
        "public_transport": "platform",
        "route_ref": "358;403;NR7"
      },
      "geometry": {
        "type": "Point",
        "coordinates": [
          103.9412987,
          1.3780725
        ]
      },
      "id": "node/410464117"
    },
    {
      "type": "Feature",
      "properties": {
        "@id": "node/410464273",
        "asset_ref": "67289",
        "bus": "yes",
        "highway": "bus_stop",
        "location": "Fernvale Lane",
        "name": "Opposite Blk 405C",
        "public_transport": "platform",
        "route_ref": "163;163M"
      },
      "geometry": {
        "type": "Point",
        "coordinates": [
          103.8732456,
          1.3896384
        ]
      },
      "id": "node/410464273"
    },
    {
      "type": "Feature",
      "properties": {
        "@id": "node/410464274",
        "asset_ref": "67281",
        "bus": "yes",
        "highway": "bus_stop",
        "location": "Fernvale Lane",
        "name": "Blk 403A",
        "public_transport": "platform",
        "route_ref": "163"
      },
      "geometry": {
        "type": "Point",
        "coordinates": [
          103.873025,
          1.3892609
        ]
      },
      "id": "node/410464274"
    },
    {
      "type": "Feature",
      "properties": {
        "@id": "node/410464710",
        "asset_ref": "66241",
        "highway": "bus_stop",
        "location": "Hemsley Avenue",
        "name": "Hemsley Avenue",
        "route_ref": "317"
      },
      "geometry": {
        "type": "Point",
        "coordinates": [
          103.8656297,
          1.3688963
        ]
      },
      "id": "node/410464710"
    },
    {
      "type": "Feature",
      "properties": {
        "@id": "node/410464828",
        "asset_ref": "63261",
        "bus": "yes",
        "highway": "bus_stop",
        "location": "Hougang Avenue 1",
        "name": "Opposite Blk 232",
        "public_transport": "platform",
        "route_ref": "53;53M;62;62A;113;115",
        "shelter": "yes"
      },
      "geometry": {
        "type": "Point",
        "coordinates": [
          103.8891558,
          1.3590117
        ]
      },
      "id": "node/410464828"
    },
    {
      "type": "Feature",
      "properties": {
        "@id": "node/410464829",
        "asset_ref": "63279",
        "bus": "yes",
        "highway": "bus_stop",
        "location": "Hougang Avenue 1",
        "name": "Opposite Yuying Secondary School",
        "public_transport": "platform",
        "route_ref": "53;53M;62;113",
        "shelter": "yes"
      },
      "geometry": {
        "type": "Point",
        "coordinates": [
          103.8897661,
          1.3562628
        ]
      },
      "id": "node/410464829"
    },
    {
      "type": "Feature",
      "properties": {
        "@id": "node/410464830",
        "asset_ref": "63271",
        "bus": "yes",
        "highway": "bus_stop",
        "location": "Hougang Avenue 1",
        "name": "Blk 239",
        "public_transport": "platform",
        "route_ref": "53;53M;62;62A;113;115",
        "shelter": "yes"
      },
      "geometry": {
        "type": "Point",
        "coordinates": [
          103.8899523,
          1.3564799
        ]
      },
      "id": "node/410464830"
    },
    {
      "type": "Feature",
      "properties": {
        "@id": "node/410464834",
        "asset_ref": "63269",
        "bus": "yes",
        "highway": "bus_stop",
        "location": "Hougang Avenue 1",
        "name": "Blk 232",
        "public_transport": "platform",
        "route_ref": "53;53M;62;113",
        "shelter": "yes"
      },
      "geometry": {
        "type": "Point",
        "coordinates": [
          103.8891042,
          1.3586992
        ]
      },
      "id": "node/410464834"
    },
    {
      "type": "Feature",
      "properties": {
        "@id": "node/410464835",
        "asset_ref": "64029",
        "bus": "yes",
        "highway": "bus_stop",
        "location": "Hougang Avenue 10",
        "name": "Opposite Blk 458",
        "public_transport": "platform",
        "route_ref": "80;82;87;88;89;119"
      },
      "geometry": {
        "type": "Point",
        "coordinates": [
          103.8968892,
          1.3778316
        ]
      },
      "id": "node/410464835"
    },
    {
      "type": "Feature",
      "properties": {
        "@id": "node/410464836",
        "asset_ref": "64391",
        "bus": "yes",
        "highway": "bus_stop",
        "location": "Hougang Avenue 10",
        "name": "Blk 831",
        "public_transport": "platform",
        "route_ref": "62;62A;82;107;107M;113;325"
      },
      "geometry": {
        "type": "Point",
        "coordinates": [
          103.8897426,
          1.3714062
        ]
      },
      "id": "node/410464836"
    },
    {
      "type": "Feature",
      "properties": {
        "@id": "node/410464837",
        "asset_ref": "64021",
        "bus": "yes",
        "highway": "bus_stop",
        "location": "Hougang Avenue 10",
        "name": "Blk 458",
        "public_transport": "platform",
        "route_ref": "80;82;87;88;89;119;NR6"
      },
      "geometry": {
        "type": "Point",
        "coordinates": [
          103.8966399,
          1.3778918
        ]
      },
      "id": "node/410464837"
    },
    {
      "type": "Feature",
      "properties": {
        "@id": "node/410464838",
        "asset_ref": "63359",
        "bus": "yes",
        "highway": "bus_stop",
        "location": "Hougang Avenue 10",
        "name": "Hougang Swimming Complex",
        "public_transport": "platform",
        "route_ref": "62;82;107;107M;113;325"
      },
      "geometry": {
        "type": "Point",
        "coordinates": [
          103.8877553,
          1.3693587
        ]
      },
      "id": "node/410464838"
    },
    {
      "type": "Feature",
      "properties": {
        "@id": "node/410464839",
        "asset_ref": "64429",
        "bus": "yes",
        "highway": "bus_stop",
        "location": "Hougang Avenue 10",
        "name": "Blk 412",
        "public_transport": "platform",
        "route_ref": "80;82;87;89;325"
      },
      "geometry": {
        "type": "Point",
        "coordinates": [
          103.8952873,
          1.3748169
        ]
      },
      "id": "node/410464839"
    },
    {
      "type": "Feature",
      "properties": {
        "@id": "node/410464840",
        "asset_ref": "64389",
        "bus": "yes",
        "highway": "bus_stop",
        "location": "Hougang Avenue 10",
        "name": "Blk 522",
        "public_transport": "platform",
        "route_ref": "27;62;80;82;87;89;113;161;325"
      },
      "geometry": {
        "type": "Point",
        "coordinates": [
          103.891669,
          1.3731581
        ]
      },
      "id": "node/410464840"
    },
    {
      "type": "Feature",
      "properties": {
        "@id": "node/410464841",
        "asset_ref": "63351",
        "bus": "yes",
        "highway": "bus_stop",
        "location": "Hougang Avenue 10",
        "name": "Opposite Hougang Swimming Complex",
        "public_transport": "platform",
        "route_ref": "62;62A;82;107;107M;113;325"
      },
      "geometry": {
        "type": "Point",
        "coordinates": [
          103.8878486,
          1.3691492
        ]
      },
      "id": "node/410464841"
    },
    {
      "type": "Feature",
      "properties": {
        "@id": "node/410464843",
        "asset_ref": "64381",
        "bus": "yes",
        "highway": "bus_stop",
        "location": "Hougang Avenue 10",
        "name": "Opposite Blk 521",
        "public_transport": "platform",
        "route_ref": "6N;27;62;62A;80;82;87;89;113;161;325"
      },
      "geometry": {
        "type": "Point",
        "coordinates": [
          103.8917511,
          1.3728942
        ]
      },
      "id": "node/410464843"
    },
    {
      "type": "Feature",
      "properties": {
        "@id": "node/410464844",
        "asset_ref": "64421",
        "bus": "yes",
        "highway": "bus_stop",
        "location": "Hougang Avenue 10",
        "name": "Blk 421",
        "public_transport": "platform",
        "route_ref": "80;82;87;89;325"
      },
      "geometry": {
        "type": "Point",
        "coordinates": [
          103.8951028,
          1.375025
        ]
      },
      "id": "node/410464844"
    },
    {
      "type": "Feature",
      "properties": {
        "@id": "node/410464845",
        "asset_ref": "64399",
        "bus": "yes",
        "highway": "bus_stop",
        "location": "Hougang Avenue 10",
        "name": "Blk 512",
        "public_transport": "platform",
        "route_ref": "62;82;107;107M;113;325"
      },
      "geometry": {
        "type": "Point",
        "coordinates": [
          103.8892745,
          1.3711971
        ]
      },
      "id": "node/410464845"
    },
    {
      "type": "Feature",
      "properties": {
        "@id": "node/410464846",
        "asset_ref": "63339",
        "bus": "yes",
        "highway": "bus_stop",
        "location": "Hougang Avenue 2",
        "name": "Opposite Blk 615",
        "public_transport": "platform",
        "route_ref": "25;55;112;132;854"
      },
      "geometry": {
        "type": "Point",
        "coordinates": [
          103.8846531,
          1.3680991
        ]
      },
      "id": "node/410464846"
    },
    {
      "type": "Feature",
      "properties": {
        "@id": "node/410464847",
        "asset_ref": "63329",
        "bus": "yes",
        "highway": "bus_stop",
        "location": "Hougang Avenue 2",
        "name": "Opposite Blk 627",
        "public_transport": "platform",
        "route_ref": "25;55;112;132;854"
      },
      "geometry": {
        "type": "Point",
        "coordinates": [
          103.8813525,
          1.3688019
        ]
      },
      "id": "node/410464847"
    },
    {
      "type": "Feature",
      "properties": {
        "@id": "node/410464850",
        "asset_ref": "63331",
        "bus": "yes",
        "highway": "bus_stop",
        "location": "Hougang Avenue 2",
        "name": "Blk 615",
        "public_transport": "platform",
        "route_ref": "25;55;112;132;854;854E"
      },
      "geometry": {
        "type": "Point",
        "coordinates": [
          103.8849287,
          1.3683838
        ]
      },
      "id": "node/410464850"
    },
    {
      "type": "Feature",
      "properties": {
        "@id": "node/410464851",
        "asset_ref": "63321",
        "bus": "yes",
        "highway": "bus_stop",
        "location": "Hougang Avenue 2",
        "name": "Blk 627",
        "public_transport": "platform",
        "route_ref": "25;55;112;132;854;854E"
      },
      "geometry": {
        "type": "Point",
        "coordinates": [
          103.8812749,
          1.3691842
        ]
      },
      "id": "node/410464851"
    },
    {
      "type": "Feature",
      "properties": {
        "@id": "node/410464853",
        "asset_ref": "63311",
        "bus": "yes",
        "highway": "bus_stop",
        "location": "Hougang Avenue 2",
        "name": "Blk 634",
        "public_transport": "platform",
        "route_ref": "25;55;74;132;147;165;854;854E"
      },
      "geometry": {
        "type": "Point",
        "coordinates": [
          103.8778071,
          1.3699181
        ]
      },
      "id": "node/410464853"
    },
    {
      "type": "Feature",
      "properties": {
        "@id": "node/410464854",
        "asset_ref": "63341",
        "bus": "yes",
        "highway": "bus_stop",
        "location": "Hougang Avenue 2",
        "name": "Opposite Blk 709",
        "public_transport": "platform",
        "route_ref": "25;55;62;62A;82;107;107M;112;113;132;325;854;854E",
        "shelter": "yes"
      },
      "geometry": {
        "type": "Point",
        "coordinates": [
          103.8887715,
          1.367534
        ]
      },
      "id": "node/410464854"
    },
    {
      "type": "Feature",
      "properties": {
        "@id": "node/410464855",
        "asset_ref": "63349",
        "bus": "yes",
        "highway": "bus_stop",
        "location": "Hougang Avenue 2",
        "name": "Blk 708",
        "public_transport": "platform",
        "route_ref": "25;55;62;82;107;107M;112;113;132;325;854",
        "shelter": "yes"
      },
      "geometry": {
        "type": "Point",
        "coordinates": [
          103.8891972,
          1.3668748
        ]
      },
      "id": "node/410464855"
    },
    {
      "type": "Feature",
      "properties": {
        "@id": "node/410464856",
        "asset_ref": "63319",
        "bus": "yes",
        "highway": "bus_stop",
        "location": "Hougang Avenue 2",
        "name": "Opposite Blk 634",
        "public_transport": "platform",
        "route_ref": "25;55;74;132;147;165;854"
      },
      "geometry": {
        "type": "Point",
        "coordinates": [
          103.8780947,
          1.3692273
        ]
      },
      "id": "node/410464856"
    },
    {
      "type": "Feature",
      "properties": {
        "@id": "node/410464860",
        "asset_ref": "63081",
        "bus": "yes",
        "highway": "bus_stop",
        "location": "Hougang Avenue 3",
        "name": "Opposite Blk 241",
        "public_transport": "platform",
        "route_ref": "25;51;55;87;151;854;854E",
        "shelter": "yes"
      },
      "geometry": {
        "type": "Point",
        "coordinates": [
          103.8925993,
          1.3568452
        ]
      },
      "id": "node/410464860"
    },
    {
      "type": "Feature",
      "properties": {
        "@id": "node/410464861",
        "asset_ref": "63071",
        "bus": "yes",
        "highway": "bus_stop",
        "location": "Hougang Avenue 3",
        "name": "Opposite Blk 248",
        "public_transport": "platform",
        "route_ref": "25;51;55;87;151;854;854E",
        "shelter": "yes"
      },
      "geometry": {
        "type": "Point",
        "coordinates": [
          103.8933254,
          1.3597631
        ]
      },
      "id": "node/410464861"
    },
    {
      "type": "Feature",
      "properties": {
        "@id": "node/410464866",
        "asset_ref": "63241",
        "bus": "yes",
        "highway": "bus_stop",
        "location": "Hougang Avenue 3",
        "name": "Blk 21",
        "public_transport": "platform",
        "route_ref": "25;51;55;62;72;81;115;854",
        "shelter": "yes"
      },
      "geometry": {
        "type": "Point",
        "coordinates": [
          103.8921354,
          1.3640989
        ]
      },
      "id": "node/410464866"
    },
    {
      "type": "Feature",
      "properties": {
        "@id": "node/410464867",
        "asset_ref": "63079",
        "bus": "yes",
        "highway": "bus_stop",
        "location": "Hougang Avenue 3",
        "name": "Blk 248",
        "public_transport": "platform",
        "route_ref": "25;51;55;87;115;151;854",
        "shelter": "yes"
      },
      "geometry": {
        "type": "Point",
        "coordinates": [
          103.8929667,
          1.3598178
        ]
      },
      "id": "node/410464867"
    },
    {
      "type": "Feature",
      "properties": {
        "@id": "node/410464871",
        "asset_ref": "63249",
        "bus": "yes",
        "highway": "bus_stop",
        "location": "Hougang Avenue 3",
        "name": "Blk 1",
        "public_transport": "platform",
        "route_ref": "25;51;55;62;62A;72;81;854;854E",
        "shelter": "yes"
      },
      "geometry": {
        "type": "Point",
        "coordinates": [
          103.8925734,
          1.3639901
        ]
      },
      "id": "node/410464871"
    },
    {
      "type": "Feature",
      "properties": {
        "@id": "node/410464873",
        "asset_ref": "63089",
        "bus": "yes",
        "highway": "bus_stop",
        "location": "Hougang Avenue 3",
        "name": "Blk 241",
        "public_transport": "platform",
        "route_ref": "25;51;55;87;115;151;854",
        "shelter": "yes"
      },
      "geometry": {
        "type": "Point",
        "coordinates": [
          103.8921517,
          1.356537
        ]
      },
      "id": "node/410464873"
    },
    {
      "type": "Feature",
      "properties": {
        "@id": "node/410464877",
        "asset_ref": "64619",
        "bus": "yes",
        "highway": "bus_stop",
        "location": "Hougang Avenue 4",
        "name": "Opposite Blk 913",
        "public_transport": "platform",
        "route_ref": "88;101;109;159;161"
      },
      "geometry": {
        "type": "Point",
        "coordinates": [
          103.8846874,
          1.3781889
        ]
      },
      "id": "node/410464877"
    },
    {
      "type": "Feature",
      "properties": {
        "@id": "node/410464878",
        "asset_ref": "64331",
        "bus": "yes",
        "highway": "bus_stop",
        "location": "Hougang Avenue 4",
        "name": "Blk 508",
        "public_transport": "platform",
        "route_ref": "72;101;116;165"
      },
      "geometry": {
        "type": "Point",
        "coordinates": [
          103.8880707,
          1.3714194
        ]
      },
      "id": "node/410464878"
    },
    {
      "type": "Feature",
      "properties": {
        "@id": "node/410464879",
        "asset_ref": "64419",
        "bus": "yes",
        "highway": "bus_stop",
        "location": "Hougang Avenue 4",
        "name": "Blk 681",
        "public_transport": "platform",
        "route_ref": "6N;72;88;112;116;161"
      },
      "geometry": {
        "type": "Point",
        "coordinates": [
          103.8852088,
          1.3732721
        ]
      },
      "id": "node/410464879"
    },
    {
      "type": "Feature",
      "properties": {
        "@id": "node/410464880",
        "asset_ref": "64611",
        "bus": "yes",
        "highway": "bus_stop",
        "location": "Hougang Avenue 4",
        "name": "Blk 913",
        "public_transport": "platform",
        "route_ref": "88;109;159;161"
      },
      "geometry": {
        "type": "Point",
        "coordinates": [
          103.8844105,
          1.3784253
        ]
      },
      "id": "node/410464880"
    },
    {
      "type": "Feature",
      "properties": {
        "@id": "node/410464881",
        "asset_ref": "64601",
        "bus": "yes",
        "highway": "bus_stop",
        "location": "Hougang Avenue 4",
        "name": "Blk 919",
        "public_transport": "platform",
        "route_ref": "88;109;159;161"
      },
      "geometry": {
        "type": "Point",
        "coordinates": [
          103.8845742,
          1.3754158
        ]
      },
      "id": "node/410464881"
    },
    {
      "type": "Feature",
      "properties": {
        "@id": "node/410464882",
        "asset_ref": "64411",
        "bus": "yes",
        "highway": "bus_stop",
        "location": "Hougang Avenue 4",
        "name": "Blk 670",
        "public_transport": "platform",
        "route_ref": "72;88;112;116;161"
      },
      "geometry": {
        "type": "Point",
        "coordinates": [
          103.8850108,
          1.373366
        ]
      },
      "id": "node/410464882"
    },
    {
      "type": "Feature",
      "properties": {
        "@id": "node/410464883",
        "asset_ref": "64609",
        "bus": "yes",
        "highway": "bus_stop",
        "location": "Hougang Avenue 4",
        "name": "Blk 687",
        "public_transport": "platform",
        "route_ref": "88;109;159;161"
      },
      "geometry": {
        "type": "Point",
        "coordinates": [
          103.8847824,
          1.375924
        ]
      },
      "id": "node/410464883"
    },
    {
      "type": "Feature",
      "properties": {
        "@id": "node/410464886",
        "asset_ref": "64339",
        "bus": "yes",
        "highway": "bus_stop",
        "location": "Hougang Avenue 4",
        "name": "Blk 602",
        "public_transport": "platform",
        "route_ref": "72;101;116;165"
      },
      "geometry": {
        "type": "Point",
        "coordinates": [
          103.8868667,
          1.3714474
        ]
      },
      "id": "node/410464886"
    },
    {
      "type": "Feature",
      "properties": {
        "@id": "node/410464887",
        "asset_ref": "64249",
        "bus": "yes",
        "highway": "bus_stop",
        "location": "Hougang Avenue 5",
        "name": "Blk 327",
        "public_transport": "platform",
        "route_ref": "87;151"
      },
      "geometry": {
        "type": "Point",
        "coordinates": [
          103.895873,
          1.368028
        ]
      },
      "id": "node/410464887"
    },
    {
      "type": "Feature",
      "properties": {
        "@id": "node/410464888",
        "asset_ref": "64241",
        "bus": "yes",
        "highway": "bus_stop",
        "location": "Hougang Avenue 5",
        "name": "Blk 308",
        "public_transport": "platform",
        "route_ref": "87;151"
      },
      "geometry": {
        "type": "Point",
        "coordinates": [
          103.896386,
          1.3671285
        ]
      },
      "id": "node/410464888"
    },
    {
      "type": "Feature",
      "properties": {
        "@id": "node/410464889",
        "asset_ref": "64579",
        "highway": "bus_stop",
        "location": "Hougang Avenue 6",
        "name": "Between Blks 544/546",
        "route_ref": "27"
      },
      "geometry": {
        "type": "Point",
        "coordinates": [
          103.8927027,
          1.3782158
        ]
      },
      "id": "node/410464889"
    },
    {
      "type": "Feature",
      "properties": {
        "@id": "node/410464890",
        "asset_ref": "64379",
        "highway": "bus_stop",
        "location": "Hougang Avenue 6",
        "name": "Punggol Community Club",
        "route_ref": "27;62;113;161"
      },
      "geometry": {
        "type": "Point",
        "coordinates": [
          103.8926488,
          1.3746646
        ]
      },
      "id": "node/410464890"
    },
    {
      "type": "Feature",
      "properties": {
        "@id": "node/410464891",
        "asset_ref": "64571",
        "highway": "bus_stop",
        "location": "Hougang Avenue 6",
        "name": "Blk 438",
        "route_ref": "27"
      },
      "geometry": {
        "type": "Point",
        "coordinates": [
          103.8929604,
          1.3781381
        ]
      },
      "id": "node/410464891"
    },
    {
      "type": "Feature",
      "properties": {
        "@id": "node/410464892",
        "asset_ref": "64371",
        "bus": "yes",
        "highway": "bus_stop",
        "location": "Hougang Avenue 6",
        "name": "Opposite Punggol Community Club",
        "public_transport": "platform",
        "route_ref": "6N;27;62;62A;113;161"
      },
      "geometry": {
        "type": "Point",
        "coordinates": [
          103.8929348,
          1.3744848
        ]
      },
      "id": "node/410464892"
    },
    {
      "type": "Feature",
      "properties": {
        "@id": "node/410464893",
        "asset_ref": "64239",
        "bus": "yes",
        "highway": "bus_stop",
        "location": "Hougang Avenue 7",
        "name": "Opposite Blk 316",
        "public_transport": "platform",
        "route_ref": "87;112;151"
      },
      "geometry": {
        "type": "Point",
        "coordinates": [
          103.896743,
          1.364406
        ]
      },
      "id": "node/410464893"
    },
    {
      "type": "Feature",
      "properties": {
        "@id": "node/410464894",
        "asset_ref": "64319",
        "bus": "yes",
        "highway": "bus_stop",
        "location": "Hougang Avenue 7",
        "name": "Opposite Blk 344",
        "public_transport": "platform",
        "route_ref": "112"
      },
      "geometry": {
        "type": "Point",
        "coordinates": [
          103.9003876,
          1.3698374
        ]
      },
      "id": "node/410464894"
    },
    {
      "type": "Feature",
      "properties": {
        "@id": "node/410464895",
        "asset_ref": "64321",
        "bus": "yes",
        "highway": "bus_stop",
        "location": "Hougang Avenue 7",
        "name": "Blk 350",
        "public_transport": "platform",
        "route_ref": "112"
      },
      "geometry": {
        "type": "Point",
        "coordinates": [
          103.9004257,
          1.3722952
        ]
      },
      "id": "node/410464895"
    },
    {
      "type": "Feature",
      "properties": {
        "@id": "node/410464896",
        "asset_ref": "64329",
        "bus": "yes",
        "highway": "bus_stop",
        "location": "Hougang Avenue 7",
        "name": "Rio Vista",
        "public_transport": "platform",
        "route_ref": "112"
      },
      "geometry": {
        "type": "Point",
        "coordinates": [
          103.9006146,
          1.3724834
        ]
      },
      "id": "node/410464896"
    },
    {
      "type": "Feature",
      "properties": {
        "@id": "node/410464897",
        "asset_ref": "64309",
        "bus": "yes",
        "highway": "bus_stop",
        "location": "Hougang Avenue 7",
        "name": "Opposite Blk 321",
        "public_transport": "platform",
        "route_ref": "112"
      },
      "geometry": {
        "type": "Point",
        "coordinates": [
          103.8992413,
          1.3670642
        ]
      },
      "id": "node/410464897"
    },
    {
      "type": "Feature",
      "properties": {
        "@id": "node/410464898",
        "asset_ref": "64311",
        "bus": "yes",
        "highway": "bus_stop",
        "location": "Hougang Avenue 7",
        "name": "Blk 344",
        "public_transport": "platform",
        "route_ref": "112"
      },
      "geometry": {
        "type": "Point",
        "coordinates": [
          103.900257,
          1.3701363
        ]
      },
      "id": "node/410464898"
    },
    {
      "type": "Feature",
      "properties": {
        "@id": "node/410464899",
        "asset_ref": "64301",
        "bus": "yes",
        "highway": "bus_stop",
        "location": "Hougang Avenue 7",
        "name": "Blk 325",
        "public_transport": "platform",
        "route_ref": "112"
      },
      "geometry": {
        "type": "Point",
        "coordinates": [
          103.8990485,
          1.367215
        ]
      },
      "id": "node/410464899"
    },
    {
      "type": "Feature",
      "properties": {
        "@id": "node/410464900",
        "asset_ref": "64231",
        "bus": "yes",
        "highway": "bus_stop",
        "location": "Hougang Avenue 7",
        "name": "Blk 316",
        "public_transport": "platform",
        "route_ref": "87;112;151"
      },
      "geometry": {
        "type": "Point",
        "coordinates": [
          103.896888,
          1.364776
        ]
      },
      "id": "node/410464900"
    },
    {
      "type": "Feature",
      "properties": {
        "@id": "node/410464901",
        "asset_ref": "64039",
        "bus": "yes",
        "highway": "bus_stop",
        "location": "Hougang Avenue 8",
        "name": "Blk 434",
        "public_transport": "platform",
        "route_ref": "62;62A;74;88;113;147;325"
      },
      "geometry": {
        "type": "Point",
        "coordinates": [
          103.8939694,
          1.3766871
        ]
      },
      "id": "node/410464901"
    },
    {
      "type": "Feature",
      "properties": {
        "@id": "node/410464902",
        "asset_ref": "64071",
        "bus": "yes",
        "highway": "bus_stop",
        "location": "Hougang Avenue 8",
        "name": "Opposite Punggol Park",
        "public_transport": "platform",
        "route_ref": "62;62A;74;113;119;147"
      },
      "geometry": {
        "type": "Point",
        "coordinates": [
          103.8973021,
          1.3750972
        ]
      },
      "id": "node/410464902"
    },
    {
      "type": "Feature",
      "properties": {
        "@id": "node/410464903",
        "asset_ref": "64031",
        "bus": "yes",
        "highway": "bus_stop",
        "location": "Hougang Avenue 8",
        "name": "Blk 436",
        "public_transport": "platform",
        "route_ref": "62;74;88;113;147;325;NR6"
      },
      "geometry": {
        "type": "Point",
        "coordinates": [
          103.893657,
          1.3769861
        ]
      },
      "id": "node/410464903"
    },
    {
      "type": "Feature",
      "properties": {
        "@id": "node/410464904",
        "asset_ref": "64079",
        "bus": "yes",
        "highway": "bus_stop",
        "location": "Hougang Avenue 8",
        "name": "Punggol Park",
        "public_transport": "platform",
        "route_ref": "62;74;113;119;147"
      },
      "geometry": {
        "type": "Point",
        "coordinates": [
          103.8977595,
          1.3750188
        ]
      },
      "id": "node/410464904"
    },
    {
      "type": "Feature",
      "properties": {
        "@id": "node/410464905",
        "asset_ref": "64359",
        "bus": "yes",
        "highway": "bus_stop",
        "location": "Hougang Avenue 8",
        "name": "Montfort School",
        "public_transport": "platform",
        "route_ref": "74;88;101;147;161"
      },
      "geometry": {
        "type": "Point",
        "coordinates": [
          103.8893167,
          1.375372
        ]
      },
      "id": "node/410464905"
    },
    {
      "type": "Feature",
      "properties": {
        "@id": "node/410464906",
        "asset_ref": "63399",
        "bus": "yes",
        "highway": "bus_stop",
        "location": "Hougang Avenue 8",
        "name": "Blk 632",
        "public_transport": "platform",
        "route_ref": "74;112;147;165"
      },
      "geometry": {
        "type": "Point",
        "coordinates": [
          103.880269,
          1.3702395
        ]
      },
      "id": "node/410464906"
    },
    {
      "type": "Feature",
      "properties": {
        "@id": "node/410464909",
        "asset_ref": "63389",
        "bus": "yes",
        "highway": "bus_stop",
        "location": "Hougang Avenue 8",
        "name": "Opposite Xinmin Primary School",
        "public_transport": "platform",
        "route_ref": "74;112;147;165"
      },
      "geometry": {
        "type": "Point",
        "coordinates": [
          103.88246,
          1.370693
        ]
      },
      "id": "node/410464909"
    },
    {
      "type": "Feature",
      "properties": {
        "@id": "node/410464910",
        "asset_ref": "63371",
        "bus": "yes",
        "highway": "bus_stop",
        "location": "Hougang Avenue 8",
        "name": "Blk 679",
        "public_transport": "platform",
        "route_ref": "74;112;147;165"
      },
      "geometry": {
        "type": "Point",
        "coordinates": [
          103.8851465,
          1.3711389
        ]
      },
      "id": "node/410464910"
    },
    {
      "type": "Feature",
      "properties": {
        "@id": "node/410464911",
        "asset_ref": "64349",
        "bus": "yes",
        "highway": "bus_stop",
        "location": "Hougang Avenue 8",
        "name": "Blk 502",
        "public_transport": "platform",
        "route_ref": "74;88;101;147;161"
      },
      "geometry": {
        "type": "Point",
        "coordinates": [
          103.8867302,
          1.3728172
        ]
      },
      "id": "node/410464911"
    },
    {
      "type": "Feature",
      "properties": {
        "@id": "node/410464912",
        "asset_ref": "63391",
        "bus": "yes",
        "highway": "bus_stop",
        "location": "Hougang Avenue 8",
        "name": "Blk 639",
        "public_transport": "platform",
        "route_ref": "74;112;147;165"
      },
      "geometry": {
        "type": "Point",
        "coordinates": [
          103.880246,
          1.370882
        ]
      },
      "id": "node/410464912"
    },
    {
      "type": "Feature",
      "properties": {
        "@id": "node/410464913",
        "asset_ref": "64351",
        "bus": "yes",
        "highway": "bus_stop",
        "location": "Hougang Avenue 8",
        "name": "Opposite Montfort School",
        "public_transport": "platform",
        "route_ref": "6N;74;88;101;147;161;NR6"
      },
      "geometry": {
        "type": "Point",
        "coordinates": [
          103.8880945,
          1.3747844
        ]
      },
      "id": "node/410464913"
    },
    {
      "type": "Feature",
      "properties": {
        "@id": "node/410464914",
        "asset_ref": "64361",
        "bus": "yes",
        "highway": "bus_stop",
        "location": "Hougang Avenue 8",
        "name": "Blk 535",
        "public_transport": "platform",
        "route_ref": "6N;74;88;147;161;325;NR6"
      },
      "geometry": {
        "type": "Point",
        "coordinates": [
          103.890379,
          1.376308
        ]
      },
      "id": "node/410464914"
    },
    {
      "type": "Feature",
      "properties": {
        "@id": "node/410464915",
        "asset_ref": "63381",
        "bus": "yes",
        "highway": "bus_stop",
        "location": "Hougang Avenue 8",
        "name": "Xinmin Primary School",
        "public_transport": "platform",
        "route_ref": "74;112;147;165"
      },
      "geometry": {
        "type": "Point",
        "coordinates": [
          103.8824501,
          1.3709539
        ]
      },
      "id": "node/410464915"
    },
    {
      "type": "Feature",
      "properties": {
        "@id": "node/410464916",
        "asset_ref": "64369",
        "bus": "yes",
        "highway": "bus_stop",
        "location": "Hougang Avenue 8",
        "name": "Blk 532",
        "public_transport": "platform",
        "route_ref": "74;88;147;161;325"
      },
      "geometry": {
        "type": "Point",
        "coordinates": [
          103.8914719,
          1.3763411
        ]
      },
      "id": "node/410464916"
    },
    {
      "type": "Feature",
      "properties": {
        "@id": "node/410464917",
        "asset_ref": "64341",
        "bus": "yes",
        "highway": "bus_stop",
        "location": "Hougang Avenue 8",
        "name": "Blk 681",
        "public_transport": "platform",
        "route_ref": "6N;74;88;101;147;161"
      },
      "geometry": {
        "type": "Point",
        "coordinates": [
          103.8861393,
          1.3725914
        ]
      },
      "id": "node/410464917"
    },
    {
      "type": "Feature",
      "properties": {
        "@id": "node/410464918",
        "asset_ref": "63379",
        "bus": "yes",
        "highway": "bus_stop",
        "location": "Hougang Avenue 8",
        "name": "Blk 608",
        "public_transport": "platform",
        "route_ref": "74;112;147;165"
      },
      "geometry": {
        "type": "Point",
        "coordinates": [
          103.885243,
          1.370782
        ]
      },
      "id": "node/410464918"
    },
    {
      "type": "Feature",
      "properties": {
        "@id": "node/410464919",
        "asset_ref": "64491",
        "bus": "yes",
        "highway": "bus_stop",
        "location": "Hougang Avenue 9",
        "name": "Hougang 1",
        "public_transport": "platform",
        "route_ref": "6N;72;109;116;159;325;NR6"
      },
      "geometry": {
        "type": "Point",
        "coordinates": [
          103.879064,
          1.375123
        ]
      },
      "id": "node/410464919"
    },
    {
      "type": "Feature",
      "properties": {
        "@id": "node/410464920",
        "asset_ref": "64471",
        "bus": "yes",
        "highway": "bus_stop",
        "location": "Hougang Avenue 9",
        "name": "Blk 917",
        "public_transport": "platform",
        "route_ref": "6N;72;109;112;116;159;NR6"
      },
      "geometry": {
        "type": "Point",
        "coordinates": [
          103.8838738,
          1.3745731
        ]
      },
      "id": "node/410464920"
    },
    {
      "type": "Feature",
      "properties": {
        "@id": "node/410464921",
        "asset_ref": "64479",
        "bus": "yes",
        "highway": "bus_stop",
        "location": "Hougang Avenue 9",
        "name": "Blk 665",
        "public_transport": "platform",
        "route_ref": "72;109;112;116;159"
      },
      "geometry": {
        "type": "Point",
        "coordinates": [
          103.8836189,
          1.3743661
        ]
      },
      "id": "node/410464921"
    },
    {
      "type": "Feature",
      "properties": {
        "@id": "node/410464922",
        "asset_ref": "64499",
        "bus": "yes",
        "highway": "bus_stop",
        "location": "Hougang Avenue 9",
        "name": "Regentville",
        "public_transport": "platform",
        "route_ref": "72;109;116;159"
      },
      "geometry": {
        "type": "Point",
        "coordinates": [
          103.8782858,
          1.3748365
        ]
      },
      "id": "node/410464922"
    },
    {
      "type": "Feature",
      "properties": {
        "@id": "node/410464923",
        "asset_ref": "64481",
        "bus": "yes",
        "highway": "bus_stop",
        "location": "Hougang Avenue 9",
        "name": "Between Blks 930/931",
        "public_transport": "platform",
        "route_ref": "6N;72;109;116;159;NR6"
      },
      "geometry": {
        "type": "Point",
        "coordinates": [
          103.8809312,
          1.3751555
        ]
      },
      "id": "node/410464923"
    },
    {
      "type": "Feature",
      "properties": {
        "@id": "node/410464924",
        "asset_ref": "64489",
        "bus": "yes",
        "highway": "bus_stop",
        "location": "Hougang Avenue 9",
        "name": "Blk 946A",
        "public_transport": "platform",
        "route_ref": "72;109;112;116;159"
      },
      "geometry": {
        "type": "Point",
        "coordinates": [
          103.8807566,
          1.3748806
        ]
      },
      "id": "node/410464924"
    },
    {
      "type": "Feature",
      "properties": {
        "@id": "node/410464925",
        "asset_ref": "64551",
        "bus": "yes",
        "highway": "bus_stop",
        "location": "Hougang Central",
        "name": "Blk 836",
        "public_transport": "platform",
        "route_ref": "72;101;116;165"
      },
      "geometry": {
        "type": "Point",
        "coordinates": [
          103.8904409,
          1.369983
        ]
      },
      "id": "node/410464925"
    },
    {
      "type": "Feature",
      "properties": {
        "@id": "node/410464926",
        "asset_ref": "64559",
        "bus": "yes",
        "highway": "bus_stop",
        "location": "Hougang Central",
        "name": "Blk 830A",
        "public_transport": "platform",
        "route_ref": "72;101;116;165"
      },
      "geometry": {
        "type": "Point",
        "coordinates": [
          103.8908159,
          1.3706362
        ]
      },
      "id": "node/410464926"
    },
    {
      "type": "Feature",
      "properties": {
        "@id": "node/410464927",
        "asset_ref": "64541",
        "bus": "yes",
        "highway": "bus_stop",
        "location": "Hougang Central",
        "name": "Hougang Central Interchange",
        "public_transport": "platform",
        "route_ref": "72;80;87;101"
      },
      "geometry": {
        "type": "Point",
        "coordinates": [
          103.8924762,
          1.3712132
        ]
      },
      "id": "node/410464927"
    },
    {
      "type": "Feature",
      "properties": {
        "@id": "node/410464928",
        "amenity": "bus_station",
        "asset_ref": "64009",
        "bus": "yes",
        "highway": "bus_stop",
        "location": "Hougang Central",
        "name": "Hougang Central Interchange",
        "public_transport": "platform",
        "route_ref": "27;51;74;89;102;107;107M;112;113;116;132;147;151;153;161;165;324;325"
      },
      "geometry": {
        "type": "Point",
        "coordinates": [
          103.8925345,
          1.3708351
        ]
      },
      "id": "node/410464928"
    },
    {
      "type": "Feature",
      "properties": {
        "@id": "node/410464929",
        "asset_ref": "64549",
        "bus": "yes",
        "highway": "bus_stop",
        "location": "Hougang Central",
        "name": "Opposite Hougang Central Interchange",
        "public_transport": "platform",
        "route_ref": "6N;72;80;87;101"
      },
      "geometry": {
        "type": "Point",
        "coordinates": [
          103.891667,
          1.3714067
        ]
      },
      "id": "node/410464929"
    },
    {
      "type": "Feature",
      "properties": {
        "@id": "node/410464935",
        "asset_ref": "63239",
        "bus": "yes",
        "highway": "bus_stop",
        "location": "Hougang Street 21",
        "name": "Opposite Blk 210",
        "public_transport": "platform",
        "route_ref": "112;113"
      },
      "geometry": {
        "type": "Point",
        "coordinates": [
          103.8878615,
          1.3589112
        ]
      },
      "id": "node/410464935"
    },
    {
      "type": "Feature",
      "properties": {
        "@id": "node/410464936",
        "asset_ref": "63221",
        "bus": "yes",
        "highway": "bus_stop",
        "location": "Hougang Street 21",
        "name": "Hougang Street 21 Food Centre",
        "public_transport": "platform",
        "route_ref": "112;113;115;119"
      },
      "geometry": {
        "type": "Point",
        "coordinates": [
          103.8854065,
          1.3579357
        ]
      },
      "id": "node/410464936"
    },
    {
      "type": "Feature",
      "properties": {
        "@id": "node/410464937",
        "asset_ref": "63231",
        "bus": "yes",
        "highway": "bus_stop",
        "location": "Hougang Street 21",
        "name": "Between Blks 210/211",
        "public_transport": "platform",
        "route_ref": "112;113;115;119"
      },
      "geometry": {
        "type": "Point",
        "coordinates": [
          103.8876262,
          1.3589854
        ]
      },
      "id": "node/410464937"
    },
    {
      "type": "Feature",
      "properties": {
        "@id": "node/410464938",
        "asset_ref": "63229",
        "bus": "yes",
        "highway": "bus_stop",
        "location": "Hougang Street 21",
        "name": "After Blk 207",
        "public_transport": "platform",
        "route_ref": "112;113"
      },
      "geometry": {
        "type": "Point",
        "coordinates": [
          103.8850881,
          1.3575509
        ]
      },
      "id": "node/410464938"
    },
    {
      "type": "Feature",
      "properties": {
        "@id": "node/410464939",
        "asset_ref": "64431",
        "highway": "bus_stop",
        "location": "Hougang Street 51",
        "name": "Blk 568",
        "route_ref": "101;325"
      },
      "geometry": {
        "type": "Point",
        "coordinates": [
          103.889314,
          1.378115
        ]
      },
      "id": "node/410464939"
    },
    {
      "type": "Feature",
      "properties": {
        "@id": "node/410464940",
        "asset_ref": "64439",
        "highway": "bus_stop",
        "location": "Hougang Street 51",
        "name": "Blk 537",
        "route_ref": "325"
      },
      "geometry": {
        "type": "Point",
        "coordinates": [
          103.8894821,
          1.378014
        ]
      },
      "id": "node/410464940"
    },
    {
      "type": "Feature",
      "properties": {
        "@id": "node/410464941",
        "asset_ref": "64561",
        "highway": "bus_stop",
        "location": "Hougang Street 51",
        "name": "Blk 574",
        "route_ref": "101"
      },
      "geometry": {
        "type": "Point",
        "coordinates": [
          103.886858,
          1.377134
        ]
      },
      "id": "node/410464941"
    },
    {
      "type": "Feature",
      "properties": {
        "@id": "node/410464947",
        "asset_ref": "64449",
        "highway": "bus_stop",
        "location": "Hougang Street 51",
        "name": "Opposite Hougang Green Shop Mall",
        "route_ref": "325"
      },
      "geometry": {
        "type": "Point",
        "coordinates": [
          103.88857,
          1.379729
        ]
      },
      "id": "node/410464947"
    },
    {
      "type": "Feature",
      "properties": {
        "@id": "node/410464948",
        "asset_ref": "64441",
        "highway": "bus_stop",
        "location": "Hougang Street 51",
        "name": "Hougang Green Shop Mall",
        "route_ref": "101;325"
      },
      "geometry": {
        "type": "Point",
        "coordinates": [
          103.888176,
          1.379864
        ]
      },
      "id": "node/410464948"
    },
    {
      "type": "Feature",
      "properties": {
        "@id": "node/410464949",
        "asset_ref": "64081",
        "highway": "bus_stop",
        "location": "Hougang Street 91",
        "name": "Hougang 1",
        "route_ref": "325"
      },
      "geometry": {
        "type": "Point",
        "coordinates": [
          103.88008,
          1.3758806
        ]
      },
      "id": "node/410464949"
    },
    {
      "type": "Feature",
      "properties": {
        "@id": "node/410464950",
        "asset_ref": "64519",
        "bus": "yes",
        "highway": "bus_stop",
        "location": "Hougang Street 92",
        "name": "Blk 943",
        "public_transport": "platform",
        "route_ref": "112"
      },
      "geometry": {
        "type": "Point",
        "coordinates": [
          103.8811024,
          1.3736923
        ]
      },
      "id": "node/410464950"
    },
    {
      "type": "Feature",
      "properties": {
        "@id": "node/410464951",
        "asset_ref": "64509",
        "bus": "yes",
        "highway": "bus_stop",
        "location": "Hougang Street 92",
        "name": "Blk 941A",
        "public_transport": "platform",
        "route_ref": "112"
      },
      "geometry": {
        "type": "Point",
        "coordinates": [
          103.8788888,
          1.3741028
        ]
      },
      "id": "node/410464951"
    },
    {
      "type": "Feature",
      "properties": {
        "@id": "node/410464952",
        "asset_ref": "64091",
        "highway": "bus_stop",
        "location": "Hougang Street 93",
        "name": "Hougang Primary School",
        "route_ref": "325"
      },
      "geometry": {
        "type": "Point",
        "coordinates": [
          103.881485,
          1.3774618
        ]
      },
      "id": "node/410464952"
    },
    {
      "type": "Feature",
      "properties": {
        "@id": "node/410465956",
        "asset_ref": "68021",
        "bus": "yes",
        "highway": "bus_stop",
        "location": "Jalan Kayu",
        "name": "Opposite Block 448A",
        "public_transport": "platform",
        "route_ref": "86;103"
      },
      "geometry": {
        "type": "Point",
        "coordinates": [
          103.8724615,
          1.3932009
        ]
      },
      "id": "node/410465956"
    },
    {
      "type": "Feature",
      "properties": {
        "@id": "node/410465959",
        "asset_ref": "68029",
        "bus": "yes",
        "highway": "bus_stop",
        "location": "Jalan Kayu",
        "name": "Block 448A",
        "public_transport": "platform",
        "route_ref": "86;103"
      },
      "geometry": {
        "type": "Point",
        "coordinates": [
          103.87267,
          1.3931251
        ]
      },
      "id": "node/410465959"
    },
    {
      "type": "Feature",
      "properties": {
        "@id": "node/410465963",
        "asset_ref": "68039",
        "bus": "yes",
        "highway": "bus_stop",
        "location": "Jalan Kayu",
        "name": "After Abundant Grace Church",
        "public_transport": "platform",
        "route_ref": "85;86;102;103"
      },
      "geometry": {
        "type": "Point",
        "coordinates": [
          103.8731756,
          1.3965845
        ]
      },
      "id": "node/410465963"
    },
    {
      "type": "Feature",
      "properties": {
        "@id": "node/410465966",
        "asset_ref": "68031",
        "bus": "yes",
        "highway": "bus_stop",
        "location": "Jalan Kayu",
        "name": "Jalan Kayu Shophouse",
        "public_transport": "platform",
        "route_ref": "85;86;102;103"
      },
      "geometry": {
        "type": "Point",
        "coordinates": [
          103.8730712,
          1.3970347
        ]
      },
      "id": "node/410465966"
    },